[
  {
    "name": "CEN001BR",
    "location": "Sanni Abacha Way By Constitution Avenue (National Mosque Bridge)",
    "city": "Central Business District",
    "lga": "Municipal Area Council",
    "state": "fct",
    "region": "northcentral",
    "category": "billboard",
    "class": "static",
    "type": "bridge_panel",
    "height_m": "25",
    "width_m": "15",
    "height_px": "0",
    "width_px": "0",
    "coordinate": "9.058795, 7.48927",
    "amount": "4,000,000",
    "face": "2",
    "unit": "1",
    "slot": "1",
    "revenue": "8,000,000",
    "status": "active"
  },
  {
    "name": "UTA002BR",
    "location": "Sanni Abacha, Yaradua Way by NNamdi Azikiwe way(Mabushi bridge)",
    "city": "Utako",
    "lga": "Municipal Area Council",
    "state": "fct",
    "region": "northcentral",
    "category": "billboard",
    "class": "static",
    "type": "bridge_panel",
    "height_m": "25",
    "width_m": "40",
    "height_px": "0",
    "width_px": "0",
    "coordinate": "9.077748, 7.45639",
    "amount": "4,000,000",
    "face": "2",
    "unit": "1",
    "slot": "1",
    "revenue": "8,000,000",
    "status": "active"
  },
  {
    "name": "CEN003BR",
    "location": "Herbert Macaulay way by Constitution Avenue",
    "city": "Central Business District",
    "lga": "Municipal Area Council",
    "state": "fct",
    "region": "northcentral",
    "category": "billboard",
    "class": "static",
    "type": "bridge_panel",
    "height_m": "3",
    "width_m": "25",
    "height_px": "0",
    "width_px": "0",
    "coordinate": "9.0493113, 7.4875944",
    "amount": "4,000,000",
    "face": "1",
    "unit": "1",
    "slot": "1",
    "revenue": "4,000,000",
    "status": "active"
  },
  {
    "name": "LION",
    "location": "By Adeniji Adele Interchange",
    "city": "Third Axial Road",
    "lga": "Lagos Island",
    "state": "lagos",
    "region": "southwest",
    "category": "billboard",
    "class": "digital",
    "type": "led",
    "height_m": "12",
    "width_m": "42",
    "height_px": "594",
    "width_px": "2052",
    "coordinate": "6.460963, 3.397412",
    "amount": "100,000,000",
    "face": "1",
    "unit": "1",
    "slot": "7",
    "revenue": "700,000,000",
    "status": "active"
  },
  {
    "name": "ELEPHANT",
    "location": "Eko Bridge, FTT Costain",
    "city": "Alagbede",
    "lga": "Surulere",
    "state": "lagos",
    "region": "southwest",
    "category": "billboard",
    "class": "digital",
    "type": "led",
    "height_m": "20",
    "width_m": "30",
    "height_px": "1640",
    "width_px": "1080",
    "coordinate": "6.466942, 3.379229",
    "amount": "30,000,000",
    "face": "1",
    "unit": "1",
    "slot": "7",
    "revenue": "210,000,000",
    "status": "active"
  },
  {
    "name": "RHINO",
    "location": "MBA way by local Airport Road",
    "city": "Airport Road",
    "lga": "Ikeja",
    "state": "lagos",
    "region": "southwest",
    "category": "billboard",
    "class": "digital",
    "type": "led",
    "height_m": "7",
    "width_m": "21",
    "height_px": "384",
    "width_px": "1248",
    "coordinate": "6.59003, 3.336452",
    "amount": "30,000,000",
    "face": "2",
    "unit": "1",
    "slot": "10",
    "revenue": "600,000,000",
    "status": "active"
  },
  {
    "name": "GIRAFFE",
    "location": "Eko Bridge, FTT outer marina and FTF Costain",
    "city": "Alagbede",
    "lga": "Surulere",
    "state": "lagos",
    "region": "southwest",
    "category": "billboard",
    "class": "digital",
    "type": "led",
    "height_m": "20",
    "width_m": "10",
    "height_px": "1320",
    "width_px": "648",
    "coordinate": "6.462436, 3.381702",
    "amount": "25,000,000",
    "face": "2",
    "unit": "1",
    "slot": "10",
    "revenue": "500,000,000",
    "status": "active"
  },
  {
    "name": "IND001GA",
    "location": "Nnamdi azikwe Way, by independence avenue (National Hospital)",
    "city": "Independent Avenue",
    "lga": "Municipal Area Council",
    "state": "fct",
    "region": "northcentral",
    "category": "billboard",
    "class": "static",
    "type": "gantry",
    "height_m": "2",
    "width_m": "15",
    "height_px": "0",
    "width_px": "0",
    "coordinate": "9.038, 7.464",
    "amount": "4,000,000",
    "face": "1",
    "unit": "1",
    "slot": "1",
    "revenue": "4,000,000",
    "status": "active"
  },
  {
    "name": "UTA002GA",
    "location": "Obafemi Awolowo Way by obafemi awolowo way (Berger Roundabout)",
    "city": "Utako",
    "lga": "Municipal Area Council",
    "state": "fct",
    "region": "northcentral",
    "category": "billboard",
    "class": "static",
    "type": "gantry",
    "height_m": "2.25",
    "width_m": "18.1",
    "height_px": "0",
    "width_px": "0",
    "coordinate": "9.067936, 7.45092",
    "amount": "4,000,000",
    "face": "2",
    "unit": "1",
    "slot": "1",
    "revenue": "8,000,000",
    "status": "active"
  },
  {
    "name": "GAR003GA",
    "location": "Shehu Shagari by Murtala Mohammed Expressway (Deeper life junction)",
    "city": "Garki I",
    "lga": "Municipal Area Council",
    "state": "fct",
    "region": "northcentral",
    "category": "billboard",
    "class": "static",
    "type": "gantry",
    "height_m": "2.5",
    "width_m": "9.2",
    "height_px": "0",
    "width_px": "0",
    "coordinate": "9.044528, 7.51148",
    "amount": "4,000,000",
    "face": "2",
    "unit": "1",
    "slot": "1",
    "revenue": "8,000,000",
    "status": "active"
  },
  {
    "name": "ONI001LI",
    "location": "At Anthony Link Road",
    "city": "Onigbongbo",
    "lga": "Ikeja",
    "state": "lagos",
    "region": "southwest",
    "category": "billboard",
    "class": "static",
    "type": "lightbox",
    "height_m": "3",
    "width_m": "6",
    "height_px": "0",
    "width_px": "0",
    "coordinate": "6.558865, 3.365858",
    "amount": "4,000,000",
    "face": "2",
    "unit": "1",
    "slot": "1",
    "revenue": "8,000,000",
    "status": "active"
  },
  {
    "name": "ORE002LI",
    "location": "Kudirat Abiola Way, Along Oregun By Keystone Bank",
    "city": "Oregun",
    "lga": "Ikeja",
    "state": "lagos",
    "region": "southwest",
    "category": "billboard",
    "class": "static",
    "type": "lightbox",
    "height_m": "3",
    "width_m": "6",
    "height_px": "0",
    "width_px": "0",
    "coordinate": "6.593134, 3.372218",
    "amount": "4,000,000",
    "face": "1",
    "unit": "1",
    "slot": "1",
    "revenue": "4,000,000",
    "status": "active"
  },
  {
    "name": "GAR003LI",
    "location": "Headquarters of the Nigerian Army, Mohammadu Buhari Way(old parade ground)",
    "city": "Garki I",
    "lga": "Municipal Area Council",
    "state": "fct",
    "region": "northcentral",
    "category": "billboard",
    "class": "static",
    "type": "lightbox",
    "height_m": "8",
    "width_m": "5",
    "height_px": "0",
    "width_px": "0",
    "coordinate": "9.040469, 7.48822",
    "amount": "2,500,000",
    "face": "2",
    "unit": "1",
    "slot": "1",
    "revenue": "5,000,000",
    "status": "active"
  },
  {
    "name": "MAI004LI",
    "location": "Alvan Ikoku way by Mississippi Street junction Maitama",
    "city": "Maitama District",
    "lga": "Municipal Area Council",
    "state": "fct",
    "region": "northcentral",
    "category": "billboard",
    "class": "static",
    "type": "lightbox",
    "height_m": "3",
    "width_m": "6",
    "height_px": "0",
    "width_px": "0",
    "coordinate": "9.088, 7.481",
    "amount": "2,500,000",
    "face": "1",
    "unit": "1",
    "slot": "1",
    "revenue": "2,500,000",
    "status": "active"
  },
  {
    "name": "WUS005LI",
    "location": "Herbert Macauley Way by Ladi Kwali street junction",
    "city": "Wuse",
    "lga": "Municipal Area Council",
    "state": "fct",
    "region": "northcentral",
    "category": "billboard",
    "class": "static",
    "type": "lightbox",
    "height_m": "8",
    "width_m": "5",
    "height_px": "0",
    "width_px": "0",
    "coordinate": "9.062, 7.479",
    "amount": "2,500,000",
    "face": "2",
    "unit": "1",
    "slot": "1",
    "revenue": "5,000,000",
    "status": "active"
  },
  {
    "name": "CEN006LI",
    "location": "Olusegun Obasanjo Way by Constitution Avenue",
    "city": "Central Business District",
    "lga": "Municipal Area Council",
    "state": "fct",
    "region": "northcentral",
    "category": "billboard",
    "class": "static",
    "type": "lightbox",
    "height_m": "3",
    "width_m": "6",
    "height_px": "0",
    "width_px": "0",
    "coordinate": "9.051054, 7.47752",
    "amount": "2,500,000",
    "face": "1",
    "unit": "1",
    "slot": "1",
    "revenue": "2,500,000",
    "status": "active"
  },
  {
    "name": "GAR007LI",
    "location": "Tafawa Balewa Way, by Emeka Anaoku Street(Near Radio House)",
    "city": "Garki I",
    "lga": "Municipal Area Council",
    "state": "fct",
    "region": "northcentral",
    "category": "billboard",
    "class": "static",
    "type": "lightbox",
    "height_m": "3",
    "width_m": "6",
    "height_px": "0",
    "width_px": "0",
    "coordinate": "9.046954, 7.49457",
    "amount": "2,500,000",
    "face": "1",
    "unit": "1",
    "slot": "1",
    "revenue": "2,500,000",
    "status": "active"
  },
  {
    "name": "GAR001MB",
    "location": "Moshood Abiola Way by Olusegun Obasajo Way T Junction(Opposite Post Office)",
    "city": "Garki I",
    "lga": "Municipal Area Council",
    "state": "fct",
    "region": "northcentral",
    "category": "billboard",
    "class": "static",
    "type": "mega_board",
    "height_m": "7",
    "width_m": "21",
    "height_px": "0",
    "width_px": "0",
    "coordinate": "9.039229, 7.48511",
    "amount": "20,000,000",
    "face": "1",
    "unit": "1",
    "slot": "1",
    "revenue": "20,000,000",
    "status": "active"
  },
  {
    "name": "IJO001MD",
    "location": "FSFC, Eko Bridge Opposite NEPA Building",
    "city": "Ijora",
    "lga": "Apapa",
    "state": "lagos",
    "region": "southwest",
    "category": "billboard",
    "class": "static",
    "type": "mega_drape",
    "height_m": "21",
    "width_m": "22",
    "height_px": "0",
    "width_px": "0",
    "coordinate": "6.465781, 3.378858",
    "amount": "24,000,000",
    "face": "3",
    "unit": "1",
    "slot": "1",
    "revenue": "72,000,000",
    "status": "active"
  },
  {
    "name": "CEN001PO",
    "location": "Shehu Shagari Way by Circular Road Junction(Opp. Fed Secretariate)",
    "city": "Central Business District",
    "lga": "Municipal Area Council",
    "state": "fct",
    "region": "northcentral",
    "category": "billboard",
    "class": "static",
    "type": "portrait",
    "height_m": "8",
    "width_m": "4",
    "height_px": "0",
    "width_px": "0",
    "coordinate": "9.063921, 7.49913",
    "amount": "2,500,000",
    "face": "1",
    "unit": "1",
    "slot": "1",
    "revenue": "2,500,000",
    "status": "active"
  },
  {
    "name": "ORE001RO",
    "location": "BRT lane, Along Ikorodu road at Ojota Busstop",
    "city": "Oregun",
    "lga": "Ikeja",
    "state": "lagos",
    "region": "southwest",
    "category": "billboard",
    "class": "static",
    "type": "rooftop",
    "height_m": "6",
    "width_m": "18",
    "height_px": "0",
    "width_px": "0",
    "coordinate": "6.587944, 3.37851",
    "amount": "6,000,000",
    "face": "1",
    "unit": "1",
    "slot": "1",
    "revenue": "6,000,000",
    "status": "active"
  },
  {
    "name": "TIN002RO",
    "location": "108, Western Avenue, Ojuelegba Road",
    "city": "Tinubu",
    "lga": "Mushin",
    "state": "lagos",
    "region": "southwest",
    "category": "billboard",
    "class": "static",
    "type": "rooftop",
    "height_m": "5.2",
    "width_m": "15",
    "height_px": "0",
    "width_px": "0",
    "coordinate": "6.51039, 3.362488",
    "amount": "6,000,000",
    "face": "1",
    "unit": "1",
    "slot": "1",
    "revenue": "6,000,000",
    "status": "active"
  },
  {
    "name": "TIN003RO",
    "location": "Access Bank Plc, Ikorodu Road, Fadeyi",
    "city": "Tinubu",
    "lga": "Mushin",
    "state": "lagos",
    "region": "southwest",
    "category": "billboard",
    "class": "static",
    "type": "rooftop",
    "height_m": "4.8",
    "width_m": "14",
    "height_px": "0",
    "width_px": "0",
    "coordinate": "6.528806, 3.366969",
    "amount": "6,000,000",
    "face": "2",
    "unit": "1",
    "slot": "1",
    "revenue": "12,000,000",
    "status": "active"
  },
  {
    "name": "TIN004RO",
    "location": "140, Agege Motor Road(Conoil)",
    "city": "Tinubu",
    "lga": "Mushin",
    "state": "lagos",
    "region": "southwest",
    "category": "billboard",
    "class": "static",
    "type": "rooftop",
    "height_m": "4.4",
    "width_m": "11.8",
    "height_px": "0",
    "width_px": "0",
    "coordinate": "6.526578, 3.359294",
    "amount": "6,000,000",
    "face": "1",
    "unit": "1",
    "slot": "1",
    "revenue": "6,000,000",
    "status": "active"
  },
  {
    "name": "TIN004RO",
    "location": "1, Apara Building by fadeyi",
    "city": "Tinubu",
    "lga": "Mushin",
    "state": "lagos",
    "region": "southwest",
    "category": "billboard",
    "class": "static",
    "type": "rooftop",
    "height_m": "3.7",
    "width_m": "11.2",
    "height_px": "0",
    "width_px": "0",
    "coordinate": "6.522172, 3.368041",
    "amount": "6,000,000",
    "face": "1",
    "unit": "1",
    "slot": "1",
    "revenue": "6,000,000",
    "status": "active"
  },
  {
    "name": "EBU006RO",
    "location": "287,Herbert Macauley,Alagomeji (by Co-Creation Hub, Nigeria,)",
    "city": "Ebute Metta",
    "lga": "Lagos Mainland",
    "state": "lagos",
    "region": "southwest",
    "category": "billboard",
    "class": "static",
    "type": "rooftop",
    "height_m": "4.4",
    "width_m": "11.8",
    "height_px": "0",
    "width_px": "0",
    "coordinate": "6.503888, 3.377659",
    "amount": "6,000,000",
    "face": "1",
    "unit": "1",
    "slot": "1",
    "revenue": "6,000,000",
    "status": "active"
  },
  {
    "name": "OGB007RO",
    "location": "51/52 Ogba Road, Agege",
    "city": "Ogba Road",
    "lga": "Agege",
    "state": "lagos",
    "region": "southwest",
    "category": "billboard",
    "class": "static",
    "type": "rooftop",
    "height_m": "4",
    "width_m": "11",
    "height_px": "0",
    "width_px": "0",
    "coordinate": "6.620629, 3.329947",
    "amount": "6,000,000",
    "face": "1",
    "unit": "1",
    "slot": "1",
    "revenue": "6,000,000",
    "status": "active"
  },
  {
    "name": "IPO008RO",
    "location": "Western Avenue/Itire Road(Hungry Jack)",
    "city": "Iponri",
    "lga": "Surulere",
    "state": "lagos",
    "region": "southwest",
    "category": "billboard",
    "class": "static",
    "type": "rooftop",
    "height_m": "4.8",
    "width_m": "14.7",
    "height_px": "0",
    "width_px": "0",
    "coordinate": "6.50897,3.36337",
    "amount": "6,000,000",
    "face": "1",
    "unit": "1",
    "slot": "1",
    "revenue": "6,000,000",
    "status": "active"
  },
  {
    "name": "MAI009RO",
    "location": "IBB way by Sanni Abacha Way",
    "city": "Maitama District",
    "lga": "Municipal Area Council",
    "state": "fct",
    "region": "northcentral",
    "category": "billboard",
    "class": "static",
    "type": "rooftop",
    "height_m": "8",
    "width_m": "4",
    "height_px": "0",
    "width_px": "0",
    "coordinate": "9.094, 7.48",
    "amount": "2,500,000",
    "face": "1",
    "unit": "1",
    "slot": "1",
    "revenue": "2,500,000",
    "status": "active"
  },
  {
    "name": "YAK010RO",
    "location": "Along france road by Abubakar Rimi Market, Yakasai",
    "city": "Yakasai",
    "lga": "Kano Municipal",
    "state": "kano",
    "region": "northwest",
    "category": "billboard",
    "class": "static",
    "type": "rooftop",
    "height_m": "3.4",
    "width_m": "9.7",
    "height_px": "0",
    "width_px": "0",
    "coordinate": "11.99526, 8.52595",
    "amount": "2,500,000",
    "face": "1",
    "unit": "1",
    "slot": "1",
    "revenue": "2,500,000",
    "status": "active"
  },
  {
    "name": "BAD011RO",
    "location": "GG1 Angwan Sanusi Kabala West, Nnamdi Azikwe Way",
    "city": "Badiko",
    "lga": "Kaduna South",
    "state": "kaduna",
    "region": "northwest",
    "category": "billboard",
    "class": "static",
    "type": "rooftop",
    "height_m": "4",
    "width_m": "11",
    "height_px": "0",
    "width_px": "0",
    "coordinate": "10.53108, 7.40394",
    "amount": "2,500,000",
    "face": "1",
    "unit": "1",
    "slot": "1",
    "revenue": "2,500,000",
    "status": "active"
  },
  {
    "name": "DAD012RO",
    "location": "W8, Ahmadu Bello Way before Katsina roundabout",
    "city": "Dadi Riba",
    "lga": "Kaduna North",
    "state": "kaduna",
    "region": "northwest",
    "category": "billboard",
    "class": "static",
    "type": "rooftop",
    "height_m": "4",
    "width_m": "11",
    "height_px": "0",
    "width_px": "0",
    "coordinate": "10.51154, 7.43094",
    "amount": "2,500,000",
    "face": "1",
    "unit": "1",
    "slot": "1",
    "revenue": "2,500,000",
    "status": "active"
  },
  {
    "name": "IKO001SU",
    "location": "By the fence of NITEL at Falomo Roundabout",
    "city": "Ikoyi",
    "lga": "Eti Osa",
    "state": "lagos",
    "region": "southwest",
    "category": "billboard",
    "class": "static",
    "type": "super48_sheet",
    "height_m": "3",
    "width_m": "4",
    "height_px": "0",
    "width_px": "0",
    "coordinate": "6.444566, 3.427692",
    "amount": "4,000,000",
    "face": "1",
    "unit": "1",
    "slot": "1",
    "revenue": "4,000,000",
    "status": "active"
  },
  {
    "name": "SAG002SU",
    "location": "Along Ikorodu Road, opposite Oriwu club FTF Sagamu",
    "city": "Sagamu Road",
    "lga": "Ikorodu",
    "state": "lagos",
    "region": "southwest",
    "category": "billboard",
    "class": "static",
    "type": "super48_sheet",
    "height_m": "3",
    "width_m": "6",
    "height_px": "0",
    "width_px": "0",
    "coordinate": "6.632208, 3.510093",
    "amount": "500,000",
    "face": "2",
    "unit": "1",
    "slot": "1",
    "revenue": "1,000,000",
    "status": "active"
  },
  {
    "name": "OKO003SU",
    "location": "Kirikiri Garage Along Oko Oba Road By Abbatoir",
    "city": "Oko Oba Road",
    "lga": "Agege",
    "state": "lagos",
    "region": "southwest",
    "category": "billboard",
    "class": "static",
    "type": "super48_sheet",
    "height_m": "3",
    "width_m": "6",
    "height_px": "0",
    "width_px": "0",
    "coordinate": "6.645128, 3.315691",
    "amount": "500,000",
    "face": "2",
    "unit": "1",
    "slot": "1",
    "revenue": "1,000,000",
    "status": "active"
  },
  {
    "name": "ADO004SU",
    "location": "Along Polythechnic road, Erifun",
    "city": "Ado Ekiti",
    "lga": "Ekiti",
    "state": "ekiti",
    "region": "southwest",
    "category": "billboard",
    "class": "static",
    "type": "super48_sheet",
    "height_m": "3",
    "width_m": "6",
    "height_px": "0",
    "width_px": "0",
    "coordinate": "7.6068, 5.28541",
    "amount": "250,000",
    "face": "1",
    "unit": "1",
    "slot": "1",
    "revenue": "250,000",
    "status": "active"
  },
  {
    "name": "ADO005SU",
    "location": "Oja Oba market, Igbehin street",
    "city": "Ado Ekiti",
    "lga": "Ekiti",
    "state": "ekiti",
    "region": "southwest",
    "category": "billboard",
    "class": "static",
    "type": "super48_sheet",
    "height_m": "3",
    "width_m": "6",
    "height_px": "0",
    "width_px": "0",
    "coordinate": "7.62241, 5.22064",
    "amount": "250,000",
    "face": "2",
    "unit": "1",
    "slot": "1",
    "revenue": "500,000",
    "status": "active"
  },
  {
    "name": "OLU006SU",
    "location": "Along Ilorin road, near Cococola, Olugbon",
    "city": "Olugbon",
    "lga": "Asa",
    "state": "kwara",
    "region": "northcentral",
    "category": "billboard",
    "class": "static",
    "type": "super48_sheet",
    "height_m": "3",
    "width_m": "6",
    "height_px": "0",
    "width_px": "0",
    "coordinate": "8.21481, 4.28653",
    "amount": "250,000",
    "face": "1",
    "unit": "1",
    "slot": "1",
    "revenue": "250,000",
    "status": "active"
  },
  {
    "name": "IKO001UL",
    "location": "1004 Housing Estate, Ozumba Mbadiwe Avenue",
    "city": "Ikoyi",
    "lga": "Eti Osa",
    "state": "lagos",
    "region": "southwest",
    "category": "billboard",
    "class": "static",
    "type": "ultra_wave",
    "height_m": "3",
    "width_m": "4",
    "height_px": "0",
    "width_px": "0",
    "coordinate": "6.439519, 3.431404",
    "amount": "5,000,000",
    "face": "1",
    "unit": "1",
    "slot": "1",
    "revenue": "5,000,000",
    "status": "active"
  },
  {
    "name": "ONI001UN",
    "location": "Along Mobolaji Bank-Anthony Way at the back of Mobil Filling Station",
    "city": "Onigbongbo",
    "lga": "Ikeja",
    "state": "lagos",
    "region": "southwest",
    "category": "billboard",
    "class": "static",
    "type": "unipole",
    "height_m": "6",
    "width_m": "18",
    "height_px": "0",
    "width_px": "0",
    "coordinate": "6.57247, 3.367086",
    "amount": "8,000,000",
    "face": "2",
    "unit": "1",
    "slot": "1",
    "revenue": "16,000,000",
    "status": "active"
  },
  {
    "name": "OJO002UN",
    "location": "Along Ikorodu Rd by Odo Iya Alaro",
    "city": "Ojota",
    "lga": "Kosofe",
    "state": "lagos",
    "region": "southwest",
    "category": "billboard",
    "class": "static",
    "type": "unipole",
    "height_m": "5.7",
    "width_m": "18.4",
    "height_px": "0",
    "width_px": "0",
    "coordinate": "6.581583, 3.374814",
    "amount": "8,000,000",
    "face": "2",
    "unit": "1",
    "slot": "1",
    "revenue": "16,000,000",
    "status": "active"
  },
  {
    "name": "ORI003UN",
    "location": "BRT Park Ikorodu Rd. by Ketu Tipper Garage, ftf Owode Oyelaja Drive",
    "city": "Orisigun",
    "lga": "Kosofe",
    "state": "lagos",
    "region": "southwest",
    "category": "billboard",
    "class": "static",
    "type": "unipole",
    "height_m": "6.7",
    "width_m": "18",
    "height_px": "0",
    "width_px": "0",
    "coordinate": "6.596045, 3.385308",
    "amount": "8,000,000",
    "face": "3",
    "unit": "1",
    "slot": "1",
    "revenue": "24,000,000",
    "status": "active"
  },
  {
    "name": "GBA004UN",
    "location": "Oworonshoki Expressway, IBB Boulevard, Third Axial Road. ftf Anthony",
    "city": "Gbagada",
    "lga": "Kosofe",
    "state": "lagos",
    "region": "southwest",
    "category": "billboard",
    "class": "static",
    "type": "unipole",
    "height_m": "9",
    "width_m": "15",
    "height_px": "0",
    "width_px": "0",
    "coordinate": "6.551044, 3.396602",
    "amount": "8,000,000",
    "face": "3",
    "unit": "1",
    "slot": "1",
    "revenue": "24,000,000",
    "status": "active"
  },
  {
    "name": "RIN005UN",
    "location": "Along 3rd Mainland Bridge by Dolphin Estate",
    "city": "Ring Road",
    "lga": "Lagos Island",
    "state": "lagos",
    "region": "southwest",
    "category": "billboard",
    "class": "static",
    "type": "unipole",
    "height_m": "6.7",
    "width_m": "18.8",
    "height_px": "0",
    "width_px": "0",
    "coordinate": "6.456706, 3.40789",
    "amount": "8,000,000",
    "face": "3",
    "unit": "1",
    "slot": "1",
    "revenue": "24,000,000",
    "status": "active"
  },
  {
    "name": "AHM006UN",
    "location": "Lagos Yacht Club, opposite Officer's mess",
    "city": "Ahmadu Bello Way",
    "lga": "Lagos Island",
    "state": "lagos",
    "region": "southwest",
    "category": "billboard",
    "class": "static",
    "type": "unipole",
    "height_m": "11.9",
    "width_m": "5.9",
    "height_px": "0",
    "width_px": "0",
    "coordinate": "6.441184, 3.40233",
    "amount": "8,000,000",
    "face": "3",
    "unit": "1",
    "slot": "1",
    "revenue": "24,000,000",
    "status": "active"
  },
  {
    "name": "IDD007UN",
    "location": "At Costain Roundabout",
    "city": "Iddo",
    "lga": "Lagos Mainland",
    "state": "lagos",
    "region": "southwest",
    "category": "billboard",
    "class": "static",
    "type": "unipole",
    "height_m": "6.7",
    "width_m": "18.8",
    "height_px": "0",
    "width_px": "0",
    "coordinate": "6.481053, 3.368912",
    "amount": "8,000,000",
    "face": "3",
    "unit": "1",
    "slot": "1",
    "revenue": "24,000,000",
    "status": "active"
  },
  {
    "name": "IPO008UN",
    "location": "Ikorodu/Western Avenue at Abati Barracks Near Ojuelegba",
    "city": "Iponri",
    "lga": "Surulere",
    "state": "lagos",
    "region": "southwest",
    "category": "billboard",
    "class": "static",
    "type": "unipole",
    "height_m": "6",
    "width_m": "18",
    "height_px": "0",
    "width_px": "0",
    "coordinate": "6.512174, 3.364134",
    "amount": "8,000,000",
    "face": "2",
    "unit": "1",
    "slot": "1",
    "revenue": "16,000,000",
    "status": "active"
  },
  {
    "name": "TIN009UN",
    "location": "Along Ikorodu Road, at Dorman Long Premises, Ojuelegba",
    "city": "Tinubu",
    "lga": "Mushin",
    "state": "lagos",
    "region": "southwest",
    "category": "billboard",
    "class": "static",
    "type": "unipole",
    "height_m": "6",
    "width_m": "18",
    "height_px": "0",
    "width_px": "0",
    "coordinate": "6.517588, 3.366092",
    "amount": "8,000,000",
    "face": "2",
    "unit": "1",
    "slot": "1",
    "revenue": "16,000,000",
    "status": "active"
  },
  {
    "name": "TIN010UN",
    "location": "Along Ikorodu Rd at Anthony b/stop",
    "city": "Tinubu",
    "lga": "Mushin",
    "state": "lagos",
    "region": "southwest",
    "category": "billboard",
    "class": "static",
    "type": "unipole",
    "height_m": "6.7",
    "width_m": "18.8",
    "height_px": "0",
    "width_px": "0",
    "coordinate": "6.558217, 3.366581",
    "amount": "8,000,000",
    "face": "3",
    "unit": "1",
    "slot": "1",
    "revenue": "24,000,000",
    "status": "active"
  },
  {
    "name": "MUS011UN",
    "location": "Oshodi/Gbagada Expressway by N.C.I.E Compound",
    "city": "Mushin",
    "lga": "Mushin",
    "state": "lagos",
    "region": "southwest",
    "category": "billboard",
    "class": "static",
    "type": "unipole",
    "height_m": "6",
    "width_m": "18.5",
    "height_px": "0",
    "width_px": "0",
    "coordinate": "6.557419, 3.355079",
    "amount": "8,000,000",
    "face": "2",
    "unit": "1",
    "slot": "1",
    "revenue": "16,000,000",
    "status": "active"
  },
  {
    "name": "AKO012UN",
    "location": "Along Agege Motor Rd, by Dopemu Bridge",
    "city": "Akowonjo",
    "lga": "Agege",
    "state": "lagos",
    "region": "southwest",
    "category": "billboard",
    "class": "static",
    "type": "unipole",
    "height_m": "6",
    "width_m": "18",
    "height_px": "0",
    "width_px": "0",
    "coordinate": "6.607469, 3.310405",
    "amount": "8,000,000",
    "face": "3",
    "unit": "1",
    "slot": "1",
    "revenue": "24,000,000",
    "status": "active"
  },
  {
    "name": "APA013UN",
    "location": "Along Mile 2/Tincan Rd, immedtly after Coconut Bridge",
    "city": "Apapa-Oworonshoki Expressway",
    "lga": "Apapa",
    "state": "lagos",
    "region": "southwest",
    "category": "billboard",
    "class": "static",
    "type": "unipole",
    "height_m": "6.7",
    "width_m": "18.8",
    "height_px": "0",
    "width_px": "0",
    "coordinate": "6.436301, 3.338806",
    "amount": "8,000,000",
    "face": "2",
    "unit": "1",
    "slot": "1",
    "revenue": "16,000,000",
    "status": "active"
  },
  {
    "name": "AMU014UN",
    "location": "Along Mile 2/Oshodi Expressway, NNPC, New Festac Bridge Road",
    "city": "Amuwo Odofin",
    "lga": "Amuwo Odofin",
    "state": "lagos",
    "region": "southwest",
    "category": "billboard",
    "class": "static",
    "type": "unipole",
    "height_m": "6",
    "width_m": "18",
    "height_px": "0",
    "width_px": "0",
    "coordinate": "6.470309, 3.322718",
    "amount": "8,000,000",
    "face": "2",
    "unit": "1",
    "slot": "1",
    "revenue": "16,000,000",
    "status": "active"
  },
  {
    "name": "OKU015UN",
    "location": "Abak Road, within ST. Patrick primary school premises",
    "city": "Oku",
    "lga": "Uyo",
    "state": "akwa_ibom",
    "region": "southsouth",
    "category": "billboard",
    "class": "static",
    "type": "unipole",
    "height_m": "6",
    "width_m": "18",
    "height_px": "0",
    "width_px": "0",
    "coordinate": "5.027368, 7.908978",
    "amount": "3,000,000",
    "face": "2",
    "unit": "1",
    "slot": "1",
    "revenue": "6,000,000",
    "status": "active"
  },
  {
    "name": "ONI016UN",
    "location": "Asaba/Onitsha Expressway, by Vina petrol tation, Asaba",
    "city": "Onitsha",
    "lga": "Onitsha North",
    "state": "anambra",
    "region": "southeast",
    "category": "billboard",
    "class": "static",
    "type": "unipole",
    "height_m": "6",
    "width_m": "18",
    "height_px": "0",
    "width_px": "0",
    "coordinate": "6.129108, 6.786446",
    "amount": "3,000,000",
    "face": "2",
    "unit": "1",
    "slot": "1",
    "revenue": "6,000,000",
    "status": "active"
  },
  {
    "name": "UGB017UN",
    "location": "Along Lagos Uselu road, by UBTH BeninUgbowo",
    "city": "Ugbowo",
    "lga": "Egor",
    "state": "edo",
    "region": "southsouth",
    "category": "billboard",
    "class": "static",
    "type": "unipole",
    "height_m": "6.5",
    "width_m": "18.7",
    "height_px": "0",
    "width_px": "0",
    "coordinate": "6.394776, 5.608934",
    "amount": "3,000,000",
    "face": "2",
    "unit": "1",
    "slot": "1",
    "revenue": "6,000,000",
    "status": "active"
  },
  {
    "name": "OKP018UN",
    "location": "Nsukka road by Ama Breweries junction, 9th mile",
    "city": "Okpara",
    "lga": "Udi",
    "state": "enugu",
    "region": "southeast",
    "category": "billboard",
    "class": "static",
    "type": "unipole",
    "height_m": "6",
    "width_m": "18",
    "height_px": "0",
    "width_px": "0",
    "coordinate": "6.438973, 7.407275",
    "amount": "3,000,000",
    "face": "2",
    "unit": "1",
    "slot": "1",
    "revenue": "6,000,000",
    "status": "active"
  },
  {
    "name": "OKP019UN",
    "location": "Diamond Bank, 22.0, Along Okpara Avenue by Ogete market",
    "city": "Okpara",
    "lga": "Enugu North",
    "state": "enugu",
    "region": "southeast",
    "category": "billboard",
    "class": "static",
    "type": "unipole",
    "height_m": "6",
    "width_m": "18",
    "height_px": "0",
    "width_px": "0",
    "coordinate": "6.441753, 7.489685",
    "amount": "3,000,000",
    "face": "2",
    "unit": "1",
    "slot": "1",
    "revenue": "6,000,000",
    "status": "active"
  },
  {
    "name": "SAB020UN",
    "location": "Along Kaduna & Zaria Express by Maraba Jos park",
    "city": "Sabon Gari Nassarawa",
    "lga": "Chikun",
    "state": "kaduna",
    "region": "northwest",
    "category": "billboard",
    "class": "static",
    "type": "unipole",
    "height_m": "6",
    "width_m": "18",
    "height_px": "0",
    "width_px": "0",
    "coordinate": "10.47544, 7.39212",
    "amount": "3,000,000",
    "face": "2",
    "unit": "1",
    "slot": "1",
    "revenue": "6,000,000",
    "status": "active"
  },
  {
    "name": "SAB021UN",
    "location": "Along Abuja - Kaduna Express after old toll gate",
    "city": "Sabon Gari Nassarawa",
    "lga": "Chikun",
    "state": "kaduna",
    "region": "northwest",
    "category": "billboard",
    "class": "static",
    "type": "unipole",
    "height_m": "6",
    "width_m": "18",
    "height_px": "0",
    "width_px": "0",
    "coordinate": "10.47536, 7.39214",
    "amount": "3,000,000",
    "face": "2",
    "unit": "1",
    "slot": "1",
    "revenue": "6,000,000",
    "status": "active"
  },
  {
    "name": "YAL022UN",
    "location": "Along Kano -Zaria Express, Kano Entrance By Maiduguri By-pass",
    "city": "Yalwa",
    "lga": "Kiru",
    "state": "kano",
    "region": "northwest",
    "category": "billboard",
    "class": "static",
    "type": "unipole",
    "height_m": "6",
    "width_m": "18",
    "height_px": "0",
    "width_px": "0",
    "coordinate": "11.45805, 8.19163",
    "amount": "3,000,000",
    "face": "2",
    "unit": "1",
    "slot": "1",
    "revenue": "6,000,000",
    "status": "active"
  },
  {
    "name": "JAJ023UN",
    "location": "Kaduna - Zaria Road, By Toll Gate, A2, Jaji, Birnin Yero",
    "city": "Jaji",
    "lga": "Igabi",
    "state": "kaduna",
    "region": "northwest",
    "category": "billboard",
    "class": "static",
    "type": "unipole",
    "height_m": "6",
    "width_m": "18",
    "height_px": "0",
    "width_px": "0",
    "coordinate": "10.7039, 7.51275",
    "amount": "3,000,000",
    "face": "2",
    "unit": "1",
    "slot": "1",
    "revenue": "6,000,000",
    "status": "active"
  },
  {
    "name": "TIN001WA",
    "location": "Niger Insurance House, Ikorodu Road",
    "city": "Tinubu",
    "lga": "Shomolu",
    "state": "lagos",
    "region": "southwest",
    "category": "billboard",
    "class": "static",
    "type": "wall_drape",
    "height_m": "10",
    "width_m": "20.2",
    "height_px": "0",
    "width_px": "0",
    "coordinate": "6.5945221, 3.3831561",
    "amount": "60,000,000",
    "face": "1",
    "unit": "1",
    "slot": "1",
    "revenue": "60,000,000",
    "status": "active"
  },
  {
    "name": "NNA002WA",
    "location": "Dolphin fashion building by Tinubu square",
    "city": "Nnamdi Azikwe Street",
    "lga": "Lagos Island",
    "state": "lagos",
    "region": "southwest",
    "category": "billboard",
    "class": "static",
    "type": "wall_drape",
    "height_m": "10",
    "width_m": "20",
    "height_px": "0",
    "width_px": "0",
    "coordinate": "6.557783, 3.367363",
    "amount": "25,000,000",
    "face": "1",
    "unit": "1",
    "slot": "1",
    "revenue": "25,000,000",
    "status": "active"
  }
]
